Site,Lon,Lat,Total Jobs Percent Change
Del Mar,-118.147938,34.141556,0.1
Hollywood Vine Apartments,-118.326118,34.100243,1.92
Hollywood Vine Hotel Condos,-118.325789,34.101069,0.96
Hollywood Western,-118.308833,34.10146,-0.02
Taylor Yard,-118.233774,34.095794,-0.07
Westlake,-118.274689,34.056314,0.09
Wilshire Vermont Apartments,-118.290864,34.062301,-0.14
Wilshire Vermont School,-118.290467,34.063357,75
Wilshire Western,-118.308546,34.062127,0